[
    {
        "id": 1,
        "name": "Al-Shabab",
        "Location": "Bousher",
        "size": "7 VS 7",
        "phone": "99999999"
    },
    {
        "id": 2,
        "name": "Galaxy",
        "Location": "Al Hail",
        "size": "7 VS 7",
        "phone": "99999999"
    },
    {
        "id": 3,
        "name": "Al-Noor",
        "Location": "Mawaleh",
        "size": "7 VS 7",
        "phone": "99999999"
    },
    {
        "id": 4,
        "name": "Bahri",
        "Location": "Al Hail",
        "size": "9 VS 9",
        "phone": "99999999"
    },
    {
        "id": 5,
        "name": "Zack",
        "Location": "Bousher",
        "size": "6 VS 6",
        "phone": "99999999"
    },
    {
        "id": 6,
        "name": "Al-Hilal",
        "Location": "Athaiba",
        "size": "11 VS 11",
        "phone": "99999999"
    },
    {
        "id": 7,
        "name": "Al-Shadi",
        "Location": "Mabella",
        "size": "7 VS 7",
        "phone": "99999999"
    },
    {
        "id": 8,
        "name": "Seven-Stars",
        "Location": "Al Hail",
        "size": "7 VS 7",
        "phone": "99999999"
    },
    {
        "id": 9,
        "name": "Intifadhah",
        "Location": "Amerat",
        "size": "7 VS 7",
        "phone": "99999999"
    },
    {
        "id": 10,
        "name": "Oman-Club",
        "Location": "Al Khuwair",
        "size": "5 VS 5",
        "phone": "99999999"
    }
]